City,Lat,Lon,Population
Houston,29.760427,-95.369804,2390125
Jackson,32.298756,-90.184807,141449
SanAntonio,29.425171,-98.494614,1526656
Dallas,32.777981,-96.796211,1326087
Shreveport,32.514252,-93.747772,174996
CorpusChristi,27.796416,-97.404131,450187
NewOrleans,29.951759,-90.074623,362701
